{
"type": "FeatureCollection",
"name": "GWYNE_385_toilets",
"crs": { "type": "name", "properties": { "name": "urn:ogc:def:crs:OGC:1.3:CRS84" } },
"features": [
{ "type": "Feature", "properties": { "name": "The Management Centre Costa", "payment_info": "Free", "accessible": "Unknown", "radar": "Unknown", "women": "True", "men": "True", "baby_change": "Unknown", "Mon": "Unknown", "Tue": "Unknown", "Wed": "Unknown", "Thu": "Unknown", "Fri": "Unknown", "Sat": "Unknown", "Sun": "Unknown", "index_right": 70, "park_offical_id": "GWYNE_385" }, "geometry": { "type": "Point", "coordinates": [ -4.130400576, 53.230530956 ] } },
{ "type": "Feature", "properties": { "name": "Lower Garth Road Bangor by pier", "payment_info": "Free", "accessible": "False", "radar": "False", "women": "True", "men": "True", "baby_change": "True", "Mon": "09:00-17:30", "Tue": "09:00-17:30", "Wed": "09:00-17:30", "Thu": "09:00-17:30", "Fri": "09:00-17:30", "Sat": "09:00-17:30", "Sun": "09:00-17:30", "index_right": 70, "park_offical_id": "GWYNE_385" }, "geometry": { "type": "Point", "coordinates": [ -4.1220288, 53.2367666 ] } },
{ "type": "Feature", "properties": { "name": "Pontio", "payment_info": "Free", "accessible": "True", "radar": "Unknown", "women": "True", "men": "True", "baby_change": "True", "Mon": "Unknown", "Tue": "Unknown", "Wed": "Unknown", "Thu": "Unknown", "Fri": "Unknown", "Sat": "Unknown", "Sun": "Unknown", "index_right": 70, "park_offical_id": "GWYNE_385" }, "geometry": { "type": "Point", "coordinates": [ -4.129496971, 53.227813233 ] } },
{ "type": "Feature", "properties": { "name": "Glanrafon", "payment_info": "Free", "accessible": "True", "radar": "Unknown", "women": "True", "men": "True", "baby_change": "False", "Mon": "Unknown", "Tue": "Unknown", "Wed": "Unknown", "Thu": "Unknown", "Fri": "Unknown", "Sat": "Unknown", "Sun": "Unknown", "index_right": 70, "park_offical_id": "GWYNE_385" }, "geometry": { "type": "Point", "coordinates": [ -4.128096888, 53.226181259 ] } },
{ "type": "Feature", "properties": { "name": "Storiel", "payment_info": "Free", "accessible": "True", "radar": "Unknown", "women": "True", "men": "True", "baby_change": "True", "Mon": "Unknown", "Tue": "Unknown", "Wed": "Unknown", "Thu": "Unknown", "Fri": "Unknown", "Sat": "Unknown", "Sun": "Unknown", "index_right": 70, "park_offical_id": "GWYNE_385" }, "geometry": { "type": "Point", "coordinates": [ -4.128546922, 53.227374591 ] } },
{ "type": "Feature", "properties": { "name": "Bangor Bus Station Public Toilets", "payment_info": "Free", "accessible": "False", "radar": "Unknown", "women": "True", "men": "True", "baby_change": "Unknown", "Mon": "Unknown", "Tue": "Unknown", "Wed": "Unknown", "Thu": "Unknown", "Fri": "Unknown", "Sat": "Unknown", "Sun": "Unknown", "index_right": 70, "park_offical_id": "GWYNE_385" }, "geometry": { "type": "Point", "coordinates": [ -4.12631602, 53.22814826 ] } }
]
}
