{
"type": "FeatureCollection",
"name": "GWYNE_392_toilets",
"crs": { "type": "name", "properties": { "name": "urn:ogc:def:crs:OGC:1.3:CRS84" } },
"features": [
{ "type": "Feature", "properties": { "name": "The Management Centre Costa", "payment_info": "Free", "accessible": "Unknown", "radar": "Unknown", "women": "True", "men": "True", "baby_change": "Unknown", "Mon": "Unknown", "Tue": "Unknown", "Wed": "Unknown", "Thu": "Unknown", "Fri": "Unknown", "Sat": "Unknown", "Sun": "Unknown", "index_right": 78, "park_offical_id": "GWYNE_392" }, "geometry": { "type": "Point", "coordinates": [ -4.130400576, 53.230530956 ] } },
{ "type": "Feature", "properties": { "name": "Pontio", "payment_info": "Free", "accessible": "True", "radar": "Unknown", "women": "True", "men": "True", "baby_change": "True", "Mon": "Unknown", "Tue": "Unknown", "Wed": "Unknown", "Thu": "Unknown", "Fri": "Unknown", "Sat": "Unknown", "Sun": "Unknown", "index_right": 78, "park_offical_id": "GWYNE_392" }, "geometry": { "type": "Point", "coordinates": [ -4.129496971, 53.227813233 ] } },
{ "type": "Feature", "properties": { "name": "Glanrafon", "payment_info": "Free", "accessible": "True", "radar": "Unknown", "women": "True", "men": "True", "baby_change": "False", "Mon": "Unknown", "Tue": "Unknown", "Wed": "Unknown", "Thu": "Unknown", "Fri": "Unknown", "Sat": "Unknown", "Sun": "Unknown", "index_right": 78, "park_offical_id": "GWYNE_392" }, "geometry": { "type": "Point", "coordinates": [ -4.128096888, 53.226181259 ] } },
{ "type": "Feature", "properties": { "name": "Morrisons", "payment_info": "Free", "accessible": "True", "radar": "Unknown", "women": "True", "men": "True", "baby_change": "True", "Mon": "07:00-10:00", "Tue": "07:00-10:00", "Wed": "07:00-23:59", "Thu": "06:00-23:59", "Fri": "06:00-23:59", "Sat": "06:00-23:59", "Sun": "07:00-16:00", "index_right": 78, "park_offical_id": "GWYNE_392" }, "geometry": { "type": "Point", "coordinates": [ -4.134215531, 53.226363187 ] } },
{ "type": "Feature", "properties": { "name": "Storiel", "payment_info": "Free", "accessible": "True", "radar": "Unknown", "women": "True", "men": "True", "baby_change": "True", "Mon": "Unknown", "Tue": "Unknown", "Wed": "Unknown", "Thu": "Unknown", "Fri": "Unknown", "Sat": "Unknown", "Sun": "Unknown", "index_right": 78, "park_offical_id": "GWYNE_392" }, "geometry": { "type": "Point", "coordinates": [ -4.128546922, 53.227374591 ] } },
{ "type": "Feature", "properties": { "name": "Bangor Bus Station Public Toilets", "payment_info": "Free", "accessible": "False", "radar": "Unknown", "women": "True", "men": "True", "baby_change": "Unknown", "Mon": "Unknown", "Tue": "Unknown", "Wed": "Unknown", "Thu": "Unknown", "Fri": "Unknown", "Sat": "Unknown", "Sun": "Unknown", "index_right": 78, "park_offical_id": "GWYNE_392" }, "geometry": { "type": "Point", "coordinates": [ -4.12631602, 53.22814826 ] } }
]
}
