{
"type": "FeatureCollection",
"name": "CERED_75_toilets",
"crs": { "type": "name", "properties": { "name": "urn:ogc:def:crs:OGC:1.3:CRS84" } },
"features": [
{ "type": "Feature", "properties": { "name": "Aberystwyth Station", "payment_info": "Free", "accessible": "True", "radar": "True", "women": "True", "men": "True", "baby_change": "True", "Mon": "Unknown", "Tue": "Unknown", "Wed": "Unknown", "Thu": "Unknown", "Fri": "Unknown", "Sat": "Unknown", "Sun": "Unknown", "index_right": 59, "park_offical_id": "CERED_75" }, "geometry": { "type": "Point", "coordinates": [ -4.081908698, 52.41405692 ] } },
{ "type": "Feature", "properties": { "name": "National Library of Wales", "payment_info": "Free", "accessible": "False", "radar": "Unknown", "women": "True", "men": "True", "baby_change": "Unknown", "Mon": "09:00-17:00", "Tue": "09:00-17:00", "Wed": "09:00-17:00", "Thu": "09:00-17:00", "Fri": "09:00-17:00", "Sat": "Closed", "Sun": "Closed", "index_right": 59, "park_offical_id": "CERED_75" }, "geometry": { "type": "Point", "coordinates": [ -4.068374634, 52.414520377 ] } },
{ "type": "Feature", "properties": { "name": "Sea front toilets", "payment_info": "40p", "accessible": "Unknown", "radar": "Unknown", "women": "True", "men": "True", "baby_change": "Unknown", "Mon": "Unknown", "Tue": "Unknown", "Wed": "Unknown", "Thu": "Unknown", "Fri": "Unknown", "Sat": "Unknown", "Sun": "Unknown", "index_right": 59, "park_offical_id": "CERED_75" }, "geometry": { "type": "Point", "coordinates": [ -4.0838387, 52.418349 ] } },
{ "type": "Feature", "properties": { "name": "Park Avenue", "payment_info": "30p", "accessible": "False", "radar": "Unknown", "women": "True", "men": "True", "baby_change": "True", "Mon": "Unknown", "Tue": "Unknown", "Wed": "Unknown", "Thu": "Unknown", "Fri": "Unknown", "Sat": "Unknown", "Sun": "Unknown", "index_right": 59, "park_offical_id": "CERED_75" }, "geometry": { "type": "Point", "coordinates": [ -4.08222531, 52.41312411 ] } },
{ "type": "Feature", "properties": { "name": "Castle Toilets", "payment_info": "30p", "accessible": "False", "radar": "True", "women": "True", "men": "True", "baby_change": "Unknown", "Mon": "Unknown", "Tue": "Unknown", "Wed": "Unknown", "Thu": "Unknown", "Fri": "Unknown", "Sat": "Unknown", "Sun": "Unknown", "index_right": 59, "park_offical_id": "CERED_75" }, "geometry": { "type": "Point", "coordinates": [ -4.088754058, 52.413178201 ] } }
]
}
